ax,ay,az,gx,gy,gz,pressure,temperature,altitude,climbRate,latitudeE7,longitudeE7,gpsAltitude,speed,heading,sats,fix,roll,filterRoll,pitch,yaw,servoDegree,baroTimeMs,gpsTimeMs,aTimeMs,aRxTimeMs,state,timeMs
0.0,0.0,0.0,0.0,0.0,0.0,1016.9288330078125,23.030000686645508,-0.0317072868347168,0.0,0,0,0.0,0.0,0.0,0,False,0.0,0.0,0.0,0.0,0.0,3369,0,0,0,0,3369
0.0,0.0,0.0,0.0,0.0,0.0,1016.9337768554688,23.030000686645508,-0.07398366928100586,-0.16910552978515625,0,0,0.0,0.0,0.0,0,False,0.0,0.0,0.0,0.0,0.0,3419,0,0,0,0,3419
0.0,0.0,0.0,0.0,0.0,0.0,1016.9337768554688,23.030000686645508,-0.07398366928100586,-0.135284423828125,0,0,0.0,0.0,0.0,0,False,0.0,0.0,0.0,0.0,0.0,3469,0,0,0,0,3469
0.0,0.0,0.0,0.0,0.0,0.0,1016.7801513671875,22.93000030517578,1.2048768997192383,5.007214546203613,0,0,0.0,0.0,0.0,0,False,0.0,0.0,0.0,0.0,0.0,3519,0,0,0,0,3519
0.0,0.0,0.0,0.0,0.0,0.0,1016.7801513671875,22.93000030517578,1.2048768997192383,4.005771636962891,0,0,0.0,0.0,0.0,0,False,0.0,0.0,0.0,0.0,0.0,3569,0,0,0,0,3569
0.0,0.0,0.0,0.0,0.0,0.0,1016.6359252929688,22.829999923706055,2.3991847038269043,7.98184871673584,0,0,0.0,0.0,0.0,0,False,0.0,0.0,0.0,0.0,0.0,3619,0,0,0,0,3619
0.0,0.0,0.0,0.0,0.0,0.0,1016.6359252929688,22.829999923706055,2.3991847038269043,6.385478973388672,0,0,0.0,0.0,0.0,0,False,0.0,0.0,0.0,0.0,0.0,3670,0,0,0,0,3670
0.0,0.0,0.0,0.0,0.0,0.0,1016.5009155273438,22.75,3.5195088386535645,9.589679718017578,0,0,0.0,0.0,0.0,0,False,0.0,0.0,0.0,0.0,0.0,3720,0,0,0,0,3720
0.0,0.0,0.0,0.0,0.0,0.0,1016.5009155273438,22.75,3.5195088386535645,7.671743869781494,0,0,0.0,0.0,0.0,0,False,0.0,0.0,0.0,0.0,0.0,3779,0,0,0,0,3779
0.0,0.0,0.0,0.0,0.0,0.0,1016.5267333984375,22.760000228881836,3.3054847717285156,5.281299114227295,0,0,0.0,0.0,0.0,0,False,0.0,0.0,0.0,0.0,0.0,3829,0,0,0,0,3829
0.0,0.0,0.0,0.0,0.0,0.0,1016.5267333984375,22.760000228881836,3.3054847717285156,4.225039482116699,0,0,0.0,0.0,0.0,0,False,0.0,0.0,0.0,0.0,0.0,3879,0,0,0,0,3879
0.0,0.0,0.0,0.0,0.0,0.0,1016.4009399414062,22.68000030517578,4.349183082580566,7.5548248291015625,0,0,0.0,0.0,0.0,0,False,0.0,0.0,0.0,0.0,0.0,3929,0,0,0,0,3929
0.0,0.0,0.0,0.0,0.0,0.0,1016.4009399414062,22.68000030517578,4.349183082580566,6.043859958648682,0,0,0.0,0.0,0.0,0,False,0.0,0.0,0.0,0.0,0.0,3979,0,0,0,0,3979
0.0,0.0,0.0,0.0,0.0,0.0,1016.2818603515625,22.600000381469727,5.337393283843994,8.78792953491211,0,0,0.0,0.0,0.0,0,False,0.0,0.0,0.0,0.0,0.0,4029,0,0,0,0,4029
0.0,0.0,0.0,0.0,0.0,0.0,1016.2818603515625,22.600000381469727,5.337393283843994,7.030343532562256,0,0,0.0,0.0,0.0,0,False,0.0,0.0,0.0,0.0,0.0,4079,0,0,0,0,4079
0.0,0.0,0.0,0.0,0.0,0.0,1016.1683349609375,22.530000686645508,6.280684947967529,9.397441864013672,0,0,0.0,0.0,0.0,0,False,0.0,0.0,0.0,0.0,0.0,4129,0,0,0,0,4129
0.0,0.0,0.0,0.0,0.0,0.0,1016.1683349609375,22.530000686645508,6.280684947967529,7.517953395843506,0,0,0.0,0.0,0.0,0,False,0.0,0.0,0.0,0.0,0.0,4179,0,0,0,0,4179
0.0,0.0,0.0,0.0,0.0,0.0,1016.218994140625,22.559999465942383,5.860563278198242,4.333876132965088,0,0,0.0,0.0,0.0,0,False,0.0,0.0,0.0,0.0,0.0,4229,0,0,0,0,4229
0.0,0.0,0.0,0.0,0.0,0.0,1016.218994140625,22.559999465942383,5.860563278198242,3.4671008586883545,0,0,0.0,0.0,0.0,0,False,0.0,0.0,0.0,0.0,0.0,4279,0,0,0,0,4279
0.0,0.0,0.0,0.0,0.0,0.0,1016.1097412109375,22.489999771118164,6.7668633460998535,6.398880958557129,0,0,0.0,0.0,0.0,0,False,0.0,0.0,0.0,0.0,0.0,4329,0,0,0,0,4329
0.0,0.0,0.0,0.0,0.0,0.0,1016.0125122070312,22.420000076293945,7.575399398803711,7.859905242919922,0,0,0.0,0.0,0.0,0,False,0.0,0.0,0.0,0.0,0.0,4388,0,0,0,0,4388
0.0,0.0,0.0,0.0,0.0,0.0,1016.0125122070312,22.420000076293945,7.575399398803711,6.287924289703369,0,0,0.0,0.0,0.0,0,False,0.0,0.0,0.0,0.0,0.0,4438,0,0,0,0,4438
0.0,0.0,0.0,0.0,0.0,0.0,1015.91748046875,22.360000610351562,8.362796783447266,8.179929733276367,0,0,0.0,0.0,0.0,0,False,0.0,0.0,0.0,0.0,0.0,4488,0,0,0,0,4488
0.0,0.0,0.0,0.0,0.0,0.0,1015.91748046875,22.360000610351562,8.362796783447266,6.543943881988525,0,0,0.0,0.0,0.0,0,False,0.0,0.0,0.0,0.0,0.0,4538,0,0,0,0,4538
0.0,0.0,0.0,0.0,0.0,0.0,1015.9801025390625,22.399999618530273,7.842268943786621,3.153043746948242,0,0,0.0,0.0,0.0,0,False,0.0,0.0,0.0,0.0,0.0,4588,0,0,0,0,4588
0.0,0.0,0.0,0.0,0.0,0.0,1015.9801025390625,22.399999618530273,7.842268943786621,2.522434949874878,0,0,0.0,0.0,0.0,0,False,0.0,0.0,0.0,0.0,0.0,4638,0,0,0,0,4638
0.0,0.0,0.0,0.0,0.0,0.0,1015.885498046875,22.34000015258789,8.62702465057373,5.156970977783203,0,0,0.0,0.0,0.0,0,False,0.0,0.0,0.0,0.0,0.0,4688,0,0,0,0,4688
0.0,0.0,0.0,0.0,0.0,0.0,1015.885498046875,22.34000015258789,8.62702465057373,4.125576972961426,0,0,0.0,0.0,0.0,0,False,0.0,0.0,0.0,0.0,0.0,4738,0,0,0,0,4738
0.0,0.0,0.0,0.0,0.0,0.0,1015.800048828125,22.290000915527344,9.337796211242676,6.143548011779785,0,0,0.0,0.0,0.0,0,False,0.0,0.0,0.0,0.0,0.0,4788,0,0,0,0,4788
0.0,0.0,0.0,0.0,0.0,0.0,1015.800048828125,22.290000915527344,9.337796211242676,4.9148383140563965,0,0,0.0,0.0,0.0,0,False,0.0,0.0,0.0,0.0,0.0,4838,0,0,0,0,4838
0.0,0.0,0.0,0.0,0.0,0.0,1015.7173461914062,22.229999542236328,10.024786949157715,6.67983341217041,0,0,0.0,0.0,0.0,0,False,0.0,0.0,0.0,0.0,0.0,4888,0,0,0,0,4888
0.0,0.0,0.0,0.0,0.0,0.0,1015.7173461914062,22.229999542236328,10.024786949157715,5.34386682510376,0,0,0.0,0.0,0.0,0,False,0.0,0.0,0.0,0.0,0.0,4938,0,0,0,0,4938
0.0,0.0,0.0,0.0,0.0,0.0,1015.7957763671875,22.280000686645508,9.374788284301758,1.6750988960266113,0,0,0.0,0.0,0.0,0,False,0.0,0.0,0.0,0.0,0.0,4988,0,0,0,0,4988
0.0,0.0,0.0,0.0,0.0,0.0,1015.7957763671875,22.280000686645508,9.374788284301758,1.3400791883468628,0,0,0.0,0.0,0.0,0,False,0.0,0.0,0.0,0.0,0.0,5038,0,0,0,0,5038
0.0,0.0,0.0,0.0,0.0,0.0,1015.7146606445312,22.229999542236328,10.04592514038086,3.756610870361328,0,0,0.0,0.0,0.0,0,False,0.0,0.0,0.0,0.0,0.0,5088,0,0,0,0,5088
0.0,0.0,0.0,0.0,0.0,0.0,1015.7146606445312,22.229999542236328,10.04592514038086,3.00528883934021,0,0,0.0,0.0,0.0,0,False,0.0,0.0,0.0,0.0,0.0,5138,0,0,0,0,5138
0.0,0.0,0.0,0.0,0.0,0.0,1015.6400146484375,22.18000030517578,10.66685962677002,4.887969017028809,0,0,0.0,0.0,0.0,0,False,0.0,0.0,0.0,0.0,0.0,5188,0,0,0,0,5188
0.0,0.0,0.0,0.0,0.0,0.0,1015.6400146484375,22.18000030517578,10.66685962677002,3.9103753566741943,0,0,0.0,0.0,0.0,0,False,0.0,0.0,0.0,0.0,0.0,5238,0,0,0,0,5238
0.0,0.0,0.0,0.0,0.0,0.0,1015.5675048828125,22.1299991607666,11.269298553466797,5.538056373596191,0,0,0.0,0.0,0.0,0,False,0.0,0.0,0.0,0.0,0.0,5288,0,0,0,0,5288
0.0,0.0,0.0,0.0,0.0,0.0,1015.5675048828125,22.1299991607666,11.269298553466797,4.430445194244385,0,0,0.0,0.0,0.0,0,False,0.0,0.0,0.0,0.0,0.0,5338,0,0,0,0,5338
0.0,0.0,0.0,0.0,0.0,0.0,1015.6561889648438,22.190000534057617,10.532103538513184,0.6533951759338379,0,0,0.0,0.0,0.0,0,False,0.0,0.0,0.0,0.0,0.0,5389,0,0,0,0,5389
0.0,0.0,0.0,0.0,0.0,0.0,1015.6561889648438,22.190000534057617,10.532103538513184,0.5227161645889282,0,0,0.0,0.0,0.0,0,False,0.0,0.0,0.0,0.0,0.0,5439,0,0,0,0,5439
0.0,0.0,0.0,0.0,0.0,0.0,1015.7196044921875,22.229999542236328,10.006291389465332,-1.6850756406784058,0,0,0.0,0.0,0.0,0,False,0.0,0.0,0.0,0.0,0.0,5489,0,0,0,0,5489
0.0,0.0,0.0,0.0,0.0,0.0,1015.7196044921875,22.229999542236328,10.006291389465332,-1.3480604887008667,0,0,0.0,0.0,0.0,0,False,0.0,0.0,0.0,0.0,0.0,5539,0,0,0,0,5539
0.0,0.0,0.0,0.0,0.0,0.0,1015.646484375,22.18000030517578,10.614014625549316,1.304780125617981,0,0,0.0,0.0,0.0,0,False,0.0,0.0,0.0,0.0,0.0,5590,0,0,0,0,5590
0.0,0.0,0.0,0.0,0.0,0.0,1015.646484375,22.18000030517578,10.614014625549316,1.0438240766525269,0,0,0.0,0.0,0.0,0,False,0.0,0.0,0.0,0.0,0.0,5640,0,0,0,0,5640
0.0,0.0,0.0,0.0,0.0,0.0,1015.57568359375,22.1299991607666,11.20059871673584,3.1813955307006836,0,0,0.0,0.0,0.0,0,False,0.0,0.0,0.0,0.0,0.0,5690,0,0,0,0,5690
0.0,0.0,0.0,0.0,0.0,0.0,1015.57568359375,22.1299991607666,11.20059871673584,2.545116424560547,0,0,0.0,0.0,0.0,0,False,0.0,0.0,0.0,0.0,0.0,5740,0,0,0,0,5740
0.0,0.0,0.0,0.0,0.0,0.0,1015.6587524414062,22.190000534057617,10.510965347290039,-0.722440242767334,0,0,0.0,0.0,0.0,0,False,0.0,0.0,0.0,0.0,0.0,5790,0,0,0,0,5790
0.0,0.0,0.0,0.0,0.0,0.0,1015.6587524414062,22.190000534057617,10.510965347290039,-0.5779522061347961,0,0,0.0,0.0,0.0,0,False,0.0,0.0,0.0,0.0,0.0,5840,0,0,0,0,5840
0.0,0.0,0.0,0.0,0.0,0.0,1015.7420043945312,22.239999771118164,9.821331977844238,-3.220895290374756,0,0,0.0,0.0,0.0,0,False,0.0,0.0,0.0,0.0,0.0,5890,0,0,0,0,5890
0.0,0.0,0.0,0.0,0.0,0.0,1015.7420043945312,22.239999771118164,9.821331977844238,-2.576716184616089,0,0,0.0,0.0,0.0,0,False,0.0,0.0,0.0,0.0,0.0,5940,0,0,0,0,5940
0.0,0.0,0.0,0.0,0.0,0.0,1015.6676635742188,22.190000534057617,10.436982154846191,0.4012277126312256,0,0,0.0,0.0,0.0,0,False,0.0,0.0,0.0,0.0,0.0,5990,0,0,0,0,5990
0.0,0.0,0.0,0.0,0.0,0.0,1015.6676635742188,22.190000534057617,10.436982154846191,0.3209821879863739,0,0,0.0,0.0,0.0,0,False,0.0,0.0,0.0,0.0,0.0,6040,0,0,0,0,6040
0.0,0.0,0.0,0.0,0.0,0.0,1015.6007690429688,22.149999618530273,10.991859436035156,2.476294994354248,0,0,0.0,0.0,0.0,0,False,0.0,0.0,0.0,0.0,0.0,6090,0,0,0,0,6090
0.0,0.0,0.0,0.0,0.0,0.0,1015.6007690429688,22.149999618530273,10.991859436035156,1.9810360670089722,0,0,0.0,0.0,0.0,0,False,0.0,0.0,0.0,0.0,0.0,6140,0,0,0,0,6140
0.0,0.0,0.0,0.0,0.0,0.0,1015.6890869140625,22.200000762939453,10.259949684143066,-1.3428101539611816,0,0,0.0,0.0,0.0,0,False,0.0,0.0,0.0,0.0,0.0,6190,0,0,0,0,6190
0.0,0.0,0.0,0.0,0.0,0.0,1015.6890869140625,22.200000762939453,10.259949684143066,-1.074248194694519,0,0,0.0,0.0,0.0,0,False,0.0,0.0,0.0,0.0,0.0,6240,0,0,0,0,6240
0.0,0.0,0.0,0.0,0.0,0.0,1015.7658081054688,22.25,9.623161315917969,-3.4065520763397217,0,0,0.0,0.0,0.0,0,False,0.0,0.0,0.0,0.0,0.0,6290,0,0,0,0,6290
0.0,0.0,0.0,0.0,0.0,0.0,1015.7658081054688,22.25,9.623161315917969,-2.7252416610717773,0,0,0.0,0.0,0.0,0,False,0.0,0.0,0.0,0.0,0.0,6340,0,0,0,0,6340
0.0,0.0,0.0,0.0,0.0,0.0,1015.7045288085938,22.209999084472656,10.130477905273438,-0.15092706680297852,0,0,0.0,0.0,0.0,0,False,0.0,0.0,0.0,0.0,0.0,6390,0,0,0,0,6390
0.0,0.0,0.0,0.0,0.0,0.0,1015.7045288085938,22.209999084472656,10.130477905273438,-0.12074165791273117,0,0,0.0,0.0,0.0,0,False,0.0,0.0,0.0,0.0,0.0,6440,0,0,0,0,6440
0.0,0.0,0.0,0.0,0.0,0.0,1015.645751953125,22.170000076293945,10.619298934936523,1.8586907386779785,0,0,0.0,0.0,0.0,0,False,0.0,0.0,0.0,0.0,0.0,6490,0,0,0,0,6490
0.0,0.0,0.0,0.0,0.0,0.0,1015.645751953125,22.170000076293945,10.619298934936523,1.4869526624679565,0,0,0.0,0.0,0.0,0,False,0.0,0.0,0.0,0.0,0.0,6540,0,0,0,0,6540
0.0,0.0,0.0,0.0,0.0,0.0,1015.728759765625,22.229999542236328,9.929665565490723,-1.5689712762832642,0,0,0.0,0.0,0.0,0,False,0.0,0.0,0.0,0.0,0.0,6590,0,0,0,0,6590
0.0,0.0,0.0,0.0,0.0,0.0,1015.728759765625,22.229999542236328,9.929665565490723,-1.2551770210266113,0,0,0.0,0.0,0.0,0,False,0.0,0.0,0.0,0.0,0.0,6640,0,0,0,0,6640
0.0,0.0,0.0,0.0,0.0,0.0,1015.8067016601562,22.280000686645508,9.282308578491211,-3.593569755554199,0,0,0.0,0.0,0.0,0,False,0.0,0.0,0.0,0.0,0.0,6690,0,0,0,0,6690
0.0,0.0,0.0,0.0,0.0,0.0,1015.8067016601562,22.280000686645508,9.282308578491211,-2.8748557567596436,0,0,0.0,0.0,0.0,0,False,0.0,0.0,0.0,0.0,0.0,6740,0,0,0,0,6740
0.0,0.0,0.0,0.0,0.0,0.0,1015.7402954101562,22.229999542236328,9.834543228149414,-0.09094595909118652,0,0,0.0,0.0,0.0,0,False,0.0,0.0,0.0,0.0,0.0,6790,0,0,0,0,6790
0.0,0.0,0.0,0.0,0.0,0.0,1015.7402954101562,22.229999542236328,9.834543228149414,-0.07275676727294922,0,0,0.0,0.0,0.0,0,False,0.0,0.0,0.0,0.0,0.0,6840,0,0,0,0,6840
0.0,0.0,0.0,0.0,0.0,0.0,1015.6810913085938,22.190000534057617,10.326005935668945,1.9076454639434814,0,0,0.0,0.0,0.0,0,False,0.0,0.0,0.0,0.0,0.0,6890,0,0,0,0,6890
0.0,0.0,0.0,0.0,0.0,0.0,1015.6810913085938,22.190000534057617,10.326005935668945,1.5261163711547852,0,0,0.0,0.0,0.0,0,False,0.0,0.0,0.0,0.0,0.0,6940,0,0,0,0,6940
0.0,0.0,0.0,0.0,0.0,0.0,1015.7601318359375,22.239999771118164,9.670722961425781,-1.4002387523651123,0,0,0.0,0.0,0.0,0,False,0.0,0.0,0.0,0.0,0.0,6990,0,0,0,0,6990
0.0,0.0,0.0,0.0,0.0,0.0,1015.7601318359375,22.239999771118164,9.670722961425781,-1.120190978050232,0,0,0.0,0.0,0.0,0,False,0.0,0.0,0.0,0.0,0.0,7040,0,0,0,0,7040
0.0,0.0,0.0,0.0,0.0,0.0,1015.834228515625,22.290000915527344,9.055072784423828,-3.3587534427642822,0,0,0.0,0.0,0.0,0,False,0.0,0.0,0.0,0.0,0.0,7090,0,0,0,0,7090
0.0,0.0,0.0,0.0,0.0,0.0,1015.834228515625,22.290000915527344,9.055072784423828,-2.6870028972625732,0,0,0.0,0.0,0.0,0,False,0.0,0.0,0.0,0.0,0.0,7140,0,0,0,0,7140
0.0,0.0,0.0,0.0,0.0,0.0,1015.767333984375,22.25,9.609950065612793,0.06990671157836914,0,0,0.0,0.0,0.0,0,False,0.0,0.0,0.0,0.0,0.0,7190,0,0,0,0,7190
0.0,0.0,0.0,0.0,0.0,0.0,1015.767333984375,22.25,9.609950065612793,0.05592536926269531,0,0,0.0,0.0,0.0,0,False,0.0,0.0,0.0,0.0,0.0,7240,0,0,0,0,7240
0.0,0.0,0.0,0.0,0.0,0.0,1015.7045288085938,22.209999084472656,10.130477905273438,2.1268515586853027,0,0,0.0,0.0,0.0,0,False,0.0,0.0,0.0,0.0,0.0,7290,0,0,0,0,7290
0.0,0.0,0.0,0.0,0.0,0.0,1015.7045288085938,22.209999084472656,10.130477905273438,1.7014812231063843,0,0,0.0,0.0,0.0,0,False,0.0,0.0,0.0,0.0,0.0,7340,0,0,0,0,7340
0.0,0.0,0.0,0.0,0.0,0.0,1015.781982421875,22.260000228881836,9.488405227661133,-0.8528589010238647,0,0,0.0,0.0,0.0,0,False,0.0,0.0,0.0,0.0,0.0,7398,0,0,0,0,7398
0.0,0.0,0.0,0.0,0.0,0.0,1015.781982421875,22.260000228881836,9.488405227661133,-0.6822871565818787,0,0,0.0,0.0,0.0,0,False,0.0,0.0,0.0,0.0,0.0,7448,0,0,0,0,7448
0.0,0.0,0.0,0.0,0.0,0.0,1015.8560180664062,22.299999237060547,8.872756004333496,-3.0084266662597656,0,0,0.0,0.0,0.0,0,False,0.0,0.0,0.0,0.0,0.0,7498,0,0,0,0,7498
0.0,0.0,0.0,0.0,0.0,0.0,1015.8560180664062,22.299999237060547,8.872756004333496,-2.4067413806915283,0,0,0.0,0.0,0.0,0,False,0.0,0.0,0.0,0.0,0.0,7548,0,0,0,0,7548
0.0,0.0,0.0,0.0,0.0,0.0,1015.77294921875,22.25,9.562389373779297,0.8331403732299805,0,0,0.0,0.0,0.0,0,False,0.0,0.0,0.0,0.0,0.0,7598,0,0,0,0,7598
0.0,0.0,0.0,0.0,0.0,0.0,1015.77294921875,22.25,9.562389373779297,0.6665123105049133,0,0,0.0,0.0,0.0,0,False,0.0,0.0,0.0,0.0,0.0,7648,0,0,0,0,7648
0.0,0.0,0.0,0.0,0.0,0.0,1015.6942138671875,22.200000762939453,10.217673301696777,3.1543455123901367,0,0,0.0,0.0,0.0,0,False,0.0,0.0,0.0,0.0,0.0,7698,0,0,0,0,7698
0.0,0.0,0.0,0.0,0.0,0.0,1015.6942138671875,22.200000762939453,10.217673301696777,2.5234763622283936,0,0,0.0,0.0,0.0,0,False,0.0,0.0,0.0,0.0,0.0,7748,0,0,0,0,7748
0.0,0.0,0.0,0.0,0.0,0.0,1015.7713012695312,22.25,9.578243255615234,-0.5389389991760254,0,0,0.0,0.0,0.0,0,False,0.0,0.0,0.0,0.0,0.0,7798,0,0,0,0,7798
0.0,0.0,0.0,0.0,0.0,0.0,1015.7713012695312,22.25,9.578243255615234,-0.43115121126174927,0,0,0.0,0.0,0.0,0,False,0.0,0.0,0.0,0.0,0.0,7848,0,0,0,0,7848
0.0,0.0,0.0,0.0,0.0,0.0,1015.84375,22.299999237060547,8.975804328918457,-2.754676580429077,0,0,0.0,0.0,0.0,0,False,0.0,0.0,0.0,0.0,0.0,7898,0,0,0,0,7898
0.0,0.0,0.0,0.0,0.0,0.0,1015.84375,22.299999237060547,8.975804328918457,-2.2037413120269775,0,0,0.0,0.0,0.0,0,False,0.0,0.0,0.0,0.0,0.0,7948,0,0,0,0,7948
0.0,0.0,0.0,0.0,0.0,0.0,1015.7611083984375,22.239999771118164,9.662796020507812,0.984973669052124,0,0,0.0,0.0,0.0,0,False,0.0,0.0,0.0,0.0,0.0,7998,0,0,0,0,7998
0.0,0.0,0.0,0.0,0.0,0.0,1015.7611083984375,22.239999771118164,9.662796020507812,0.7879789471626282,0,0,0.0,0.0,0.0,0,False,0.0,0.0,0.0,0.0,0.0,8048,0,0,0,0,8048
0.0,0.0,0.0,0.0,0.0,0.0,1015.682373046875,22.190000534057617,10.315437316894531,3.240948438644409,0,0,0.0,0.0,0.0,0,False,0.0,0.0,0.0,0.0,0.0,8098,0,0,0,0,8098
0.0,0.0,0.0,0.0,0.0,0.0,1015.682373046875,22.190000534057617,10.315437316894531,2.592758893966675,0,0,0.0,0.0,0.0,0,False,0.0,0.0,0.0,0.0,0.0,8148,0,0,0,0,8148
0.0,0.0,0.0,0.0,0.0,0.0,1015.7611083984375,22.239999771118164,9.662796020507812,-0.536358118057251,0,0,0.0,0.0,0.0,0,False,0.0,0.0,0.0,0.0,0.0,8198,0,0,0,0,8198
0.0,0.0,0.0,0.0,0.0,0.0,1015.7611083984375,22.239999771118164,9.662796020507812,-0.42908650636672974,0,0,0.0,0.0,0.0,0,False,0.0,0.0,0.0,0.0,0.0,8248,0,0,0,0,8248
0.0,0.0,0.0,0.0,0.0,0.0,1015.8375244140625,22.290000915527344,9.026007652282715,-2.8904225826263428,0,0,0.0,0.0,0.0,0,False,0.0,0.0,0.0,0.0,0.0,8298,0,0,0,0,8298
0.0,0.0,0.0,0.0,0.0,0.0,1015.8375244140625,22.290000915527344,9.026007652282715,-2.31233811378479,0,0,0.0,0.0,0.0,0,False,0.0,0.0,0.0,0.0,0.0,8348,0,0,0,0,8348
0.0,0.0,0.0,0.0,0.0,0.0,1015.7528076171875,22.239999771118164,9.731494903564453,0.9720784425735474,0,0,0.0,0.0,0.0,0,False,0.0,0.0,0.0,0.0,0.0,8398,0,0,0,0,8398
0.0,0.0,0.0,0.0,0.0,0.0,1015.7528076171875,22.239999771118164,9.731494903564453,0.7776627540588379,0,0,0.0,0.0,0.0,0,False,0.0,0.0,0.0,0.0,0.0,8448,0,0,0,0,8448
0.0,0.0,0.0,0.0,0.0,0.0,1015.674072265625,22.190000534057617,10.384136199951172,3.2326953411102295,0,0,0.0,0.0,0.0,0,False,0.0,0.0,0.0,0.0,0.0,8498,0,0,0,0,8498
0.0,0.0,0.0,0.0,0.0,0.0,1015.674072265625,22.190000534057617,10.384136199951172,2.5861563682556152,0,0,0.0,0.0,0.0,0,False,0.0,0.0,0.0,0.0,0.0,8548,0,0,0,0,8548
0.0,0.0,0.0,0.0,0.0,0.0,1015.7511596679688,22.239999771118164,9.744706153869629,-0.48879504203796387,0,0,0.0,0.0,0.0,0,False,0.0,0.0,0.0,0.0,0.0,8598,0,0,0,0,8598
0.0,0.0,0.0,0.0,0.0,0.0,1015.7511596679688,22.239999771118164,9.744706153869629,-0.3910360336303711,0,0,0.0,0.0,0.0,0,False,0.0,0.0,0.0,0.0,0.0,8648,0,0,0,0,8648
0.0,0.0,0.0,0.0,0.0,0.0,1015.827880859375,22.290000915527344,9.107917785644531,-2.8599822521209717,0,0,0.0,0.0,0.0,0,False,0.0,0.0,0.0,0.0,0.0,8698,0,0,0,0,8698
0.0,0.0,0.0,0.0,0.0,0.0,1015.827880859375,22.290000915527344,9.107917785644531,-2.2879858016967773,0,0,0.0,0.0,0.0,0,False,0.0,0.0,0.0,0.0,0.0,8748,0,0,0,0,8748
0.0,0.0,0.0,0.0,0.0,0.0,1015.7435302734375,22.229999542236328,9.808120727539062,0.9704231023788452,0,0,0.0,0.0,0.0,0,False,0.0,0.0,0.0,0.0,0.0,8798,0,0,0,0,8798
0.0,0.0,0.0,0.0,0.0,0.0,1015.7435302734375,22.229999542236328,9.808120727539062,0.776338517665863,0,0,0.0,0.0,0.0,0,False,0.0,0.0,0.0,0.0,0.0,8848,0,0,0,0,8848
0.0,0.0,0.0,0.0,0.0,0.0,1015.662841796875,22.18000030517578,10.476615905761719,3.2950515747070312,0,0,0.0,0.0,0.0,0,False,0.0,0.0,0.0,0.0,0.0,8898,0,0,0,0,8898
0.0,0.0,0.0,0.0,0.0,0.0,1015.662841796875,22.18000030517578,10.476615905761719,2.6360414028167725,0,0,0.0,0.0,0.0,0,False,0.0,0.0,0.0,0.0,0.0,8948,0,0,0,0,8948
0.0,0.0,0.0,0.0,0.0,0.0,1015.7402954101562,22.229999542236328,9.834543228149414,-0.4594576358795166,0,0,0.0,0.0,0.0,0,False,0.0,0.0,0.0,0.0,0.0,8998,0,0,0,0,8998
0.0,0.0,0.0,0.0,0.0,0.0,1015.7402954101562,22.229999542236328,9.834543228149414,-0.3675661087036133,0,0,0.0,0.0,0.0,0,False,0.0,0.0,0.0,0.0,0.0,9048,0,0,0,0,9048
0.0,0.0,0.0,0.0,0.0,0.0,1015.81640625,22.280000686645508,9.20304012298584,-2.8200652599334717,0,0,0.0,0.0,0.0,0,False,0.0,0.0,0.0,0.0,0.0,9098,0,0,0,0,9098
0.0,0.0,0.0,0.0,0.0,0.0,1015.81640625,22.280000686645508,9.20304012298584,-2.256052255630493,0,0,0.0,0.0,0.0,0,False,0.0,0.0,0.0,0.0,0.0,9148,0,0,0,0,9148
0.0,0.0,0.0,0.0,0.0,0.0,1015.7352905273438,22.229999542236328,9.876819610595703,0.8902760744094849,0,0,0.0,0.0,0.0,0,False,0.0,0.0,0.0,0.0,0.0,9198,0,0,0,0,9198
0.0,0.0,0.0,0.0,0.0,0.0,1015.7352905273438,22.229999542236328,9.876819610595703,0.7122208476066589,0,0,0.0,0.0,0.0,0,False,0.0,0.0,0.0,0.0,0.0,9248,0,0,0,0,9248
0.0,0.0,0.0,0.0,0.0,0.0,1015.6565551757812,22.18000030517578,10.529461860656738,3.1803457736968994,0,0,0.0,0.0,0.0,0,False,0.0,0.0,0.0,0.0,0.0,9298,0,0,0,0,9298
0.0,0.0,0.0,0.0,0.0,0.0,1015.6565551757812,22.18000030517578,10.529461860656738,2.544276714324951,0,0,0.0,0.0,0.0,0,False,0.0,0.0,0.0,0.0,0.0,9348,0,0,0,0,9348
0.0,0.0,0.0,0.0,0.0,0.0,1015.7391967773438,22.229999542236328,9.842470169067383,-0.7125453948974609,0,0,0.0,0.0,0.0,0,False,0.0,0.0,0.0,0.0,0.0,9398,0,0,0,0,9398
0.0,0.0,0.0,0.0,0.0,0.0,1015.7391967773438,22.229999542236328,9.842470169067383,-0.5700363516807556,0,0,0.0,0.0,0.0,0,False,0.0,0.0,0.0,0.0,0.0,9448,0,0,0,0,9448
0.0,0.0,0.0,0.0,0.0,0.0,1015.8156127929688,22.280000686645508,9.208324432373047,-2.99261212348938,0,0,0.0,0.0,0.0,0,False,0.0,0.0,0.0,0.0,0.0,9498,0,0,0,0,9498
0.0,0.0,0.0,0.0,0.0,0.0,1015.8156127929688,22.280000686645508,9.208324432373047,-2.394089698791504,0,0,0.0,0.0,0.0,0,False,0.0,0.0,0.0,0.0,0.0,9548,0,0,0,0,9548
0.0,0.0,0.0,0.0,0.0,0.0,1015.7313232421875,22.219999313354492,9.908527374267578,0.8855400085449219,0,0,0.0,0.0,0.0,0,False,0.0,0.0,0.0,0.0,0.0,9598,0,0,0,0,9598
0.0,0.0,0.0,0.0,0.0,0.0,1015.7313232421875,22.219999313354492,9.908527374267578,0.7084320187568665,0,0,0.0,0.0,0.0,0,False,0.0,0.0,0.0,0.0,0.0,9648,0,0,0,0,9648
0.0,0.0,0.0,0.0,0.0,0.0,1015.6522827148438,22.170000076293945,10.563811302185059,3.1878814697265625,0,0,0.0,0.0,0.0,0,False,0.0,0.0,0.0,0.0,0.0,9698,0,0,0,0,9698
0.0,0.0,0.0,0.0,0.0,0.0,1015.6522827148438,22.170000076293945,10.563811302185059,2.550305128097534,0,0,0.0,0.0,0.0,0,False,0.0,0.0,0.0,0.0,0.0,9748,0,0,0,0,9748
0.0,0.0,0.0,0.0,0.0,0.0,1015.7313232421875,22.219999313354492,9.908527374267578,-0.5808916091918945,0,0,0.0,0.0,0.0,0,False,0.0,0.0,0.0,0.0,0.0,9798,0,0,0,0,9798
0.0,0.0,0.0,0.0,0.0,0.0,1015.7313232421875,22.219999313354492,9.908527374267578,-0.46471330523490906,0,0,0.0,0.0,0.0,0,False,0.0,0.0,0.0,0.0,0.0,9848,0,0,0,0,9848
0.0,0.0,0.0,0.0,0.0,0.0,1015.8076782226562,22.270000457763672,9.274381637573242,-2.858616828918457,0,0,0.0,0.0,0.0,0,False,0.0,0.0,0.0,0.0,0.0,9899,0,0,0,0,9899
0.0,0.0,0.0,0.0,0.0,0.0,1015.8076782226562,22.270000457763672,9.274381637573242,-2.286893606185913,0,0,0.0,0.0,0.0,0,False,0.0,0.0,0.0,0.0,0.0,9949,0,0,0,0,9949
0.0,0.0,0.0,0.0,0.0,0.0,1015.7249755859375,22.219999313354492,9.961372375488281,0.9184480905532837,0,0,0.0,0.0,0.0,0,False,0.0,0.0,0.0,0.0,0.0,9999,0,0,0,0,9999
0.0,0.0,0.0,0.0,0.0,0.0,1015.7249755859375,22.219999313354492,9.961372375488281,0.7347584962844849,0,0,0.0,0.0,0.0,0,False,0.0,0.0,0.0,0.0,0.0,10049,0,0,0,0,10049
0.0,0.0,0.0,0.0,0.0,0.0,1015.64990234375,22.170000076293945,10.584949493408203,3.0821151733398438,0,0,0.0,0.0,0.0,0,False,0.0,0.0,0.0,0.0,0.0,10099,0,0,0,0,10099
0.0,0.0,0.0,0.0,0.0,0.0,1015.64990234375,22.170000076293945,10.584949493408203,2.4656922817230225,0,0,0.0,0.0,0.0,0,False,0.0,0.0,0.0,0.0,0.0,10149,0,0,0,0,10149
0.0,0.0,0.0,0.0,0.0,0.0,1015.7273559570312,22.219999313354492,9.942876815795898,-0.5957368612289429,0,0,0.0,0.0,0.0,0,False,0.0,0.0,0.0,0.0,0.0,10199,0,0,0,0,10199
0.0,0.0,0.0,0.0,0.0,0.0,1015.7273559570312,22.219999313354492,9.942876815795898,-0.47658950090408325,0,0,0.0,0.0,0.0,0,False,0.0,0.0,0.0,0.0,0.0,10249,0,0,0,0,10249
0.0,0.0,0.0,0.0,0.0,0.0,1015.8076782226562,22.270000457763672,9.274381637573242,-3.0552523136138916,0,0,0.0,0.0,0.0,0,False,0.0,0.0,0.0,0.0,0.0,10299,0,0,0,0,10299
0.0,0.0,0.0,0.0,0.0,0.0,1015.8076782226562,22.270000457763672,9.274381637573242,-2.444201946258545,0,0,0.0,0.0,0.0,0,False,0.0,0.0,0.0,0.0,0.0,10349,0,0,0,0,10349
0.0,0.0,0.0,0.0,0.0,0.0,1015.7266235351562,22.219999313354492,9.948161125183105,0.7397563457489014,0,0,0.0,0.0,0.0,0,False,0.0,0.0,0.0,0.0,0.0,10399,0,0,0,0,10399
0.0,0.0,0.0,0.0,0.0,0.0,1015.7266235351562,22.219999313354492,9.948161125183105,0.591805100440979,0,0,0.0,0.0,0.0,0,False,0.0,0.0,0.0,0.0,0.0,10449,0,0,0,0,10449
0.0,0.0,0.0,0.0,0.0,0.0,1015.6475830078125,22.170000076293945,10.603445053100586,3.0945796966552734,0,0,0.0,0.0,0.0,0,False,0.0,0.0,0.0,0.0,0.0,10499,0,0,0,0,10499
0.0,0.0,0.0,0.0,0.0,0.0,1015.6475830078125,22.170000076293945,10.603445053100586,2.475663900375366,0,0,0.0,0.0,0.0,0,False,0.0,0.0,0.0,0.0,0.0,10549,0,0,0,0,10549
0.0,0.0,0.0,0.0,0.0,0.0,1015.72900390625,22.219999313354492,9.927022933959961,-0.7251573801040649,0,0,0.0,0.0,0.0,0,False,0.0,0.0,0.0,0.0,0.0,10599,0,0,0,0,10599
0.0,0.0,0.0,0.0,0.0,0.0,1015.72900390625,22.219999313354492,9.927022933959961,-0.5801259279251099,0,0,0.0,0.0,0.0,0,False,0.0,0.0,0.0,0.0,0.0,10649,0,0,0,0,10649
0.0,0.0,0.0,0.0,0.0,0.0,1015.8052978515625,22.270000457763672,9.295519828796387,-2.9901132583618164,0,0,0.0,0.0,0.0,0,False,0.0,0.0,0.0,0.0,0.0,10699,0,0,0,0,10699
0.0,0.0,0.0,0.0,0.0,0.0,1015.8052978515625,22.270000457763672,9.295519828796387,-2.3920905590057373,0,0,0.0,0.0,0.0,0,False,0.0,0.0,0.0,0.0,0.0,10749,0,0,0,0,10749
0.0,0.0,0.0,0.0,0.0,0.0,1015.720703125,22.219999313354492,9.995721817016602,0.8871355056762695,0,0,0.0,0.0,0.0,0,False,0.0,0.0,0.0,0.0,0.0,10799,0,0,0,0,10799
0.0,0.0,0.0,0.0,0.0,0.0,1015.720703125,22.219999313354492,9.995721817016602,0.7097083926200867,0,0,0.0,0.0,0.0,0,False,0.0,0.0,0.0,0.0,0.0,10849,0,0,0,0,10849
0.0,0.0,0.0,0.0,0.0,0.0,1015.644287109375,22.170000076293945,10.6325101852417,3.114920139312744,0,0,0.0,0.0,0.0,0,False,0.0,0.0,0.0,0.0,0.0,10899,0,0,0,0,10899
0.0,0.0,0.0,0.0,0.0,0.0,1015.644287109375,22.170000076293945,10.6325101852417,2.491936206817627,0,0,0.0,0.0,0.0,0,False,0.0,0.0,0.0,0.0,0.0,10949,0,0,0,0,10949
0.0,0.0,0.0,0.0,0.0,0.0,1015.723388671875,22.219999313354492,9.974583625793457,-0.6381572484970093,0,0,0.0,0.0,0.0,0,False,0.0,0.0,0.0,0.0,0.0,10999,0,0,0,0,10999
0.0,0.0,0.0,0.0,0.0,0.0,1015.723388671875,22.219999313354492,9.974583625793457,-0.5105258226394653,0,0,0.0,0.0,0.0,0,False,0.0,0.0,0.0,0.0,0.0,11049,0,0,0,0,11049
0.0,0.0,0.0,0.0,0.0,0.0,1015.7965087890625,22.270000457763672,9.366861343383789,-2.8393096923828125,0,0,0.0,0.0,0.0,0,False,0.0,0.0,0.0,0.0,0.0,11099,0,0,0,0,11099
0.0,0.0,0.0,0.0,0.0,0.0,1015.7965087890625,22.270000457763672,9.366861343383789,-2.2714478969573975,0,0,0.0,0.0,0.0,0,False,0.0,0.0,0.0,0.0,0.0,11149,0,0,0,0,11149
0.0,0.0,0.0,0.0,0.0,0.0,1015.7118530273438,22.209999084472656,10.069705963134766,0.9942201375961304,0,0,0.0,0.0,0.0,0,False,0.0,0.0,0.0,0.0,0.0,11199,0,0,0,0,11199
0.0,0.0,0.0,0.0,0.0,0.0,1015.7118530273438,22.209999084472656,10.069705963134766,0.7953761219978333,0,0,0.0,0.0,0.0,0,False,0.0,0.0,0.0,0.0,0.0,11249,0,0,0,0,11249
0.0,0.0,0.0,0.0,0.0,0.0,1015.635498046875,22.15999984741211,10.703851699829102,3.172883987426758,0,0,0.0,0.0,0.0,0,False,0.0,0.0,0.0,0.0,0.0,11299,0,0,0,0,11299
0.0,0.0,0.0,0.0,0.0,0.0,1015.635498046875,22.15999984741211,10.703851699829102,2.5383071899414062,0,0,0.0,0.0,0.0,0,False,0.0,0.0,0.0,0.0,0.0,11350,0,0,0,0,11350
0.0,0.0,0.0,0.0,0.0,0.0,1015.7157592773438,22.219999313354492,10.03799819946289,-0.6327681541442871,0,0,0.0,0.0,0.0,0,False,0.0,0.0,0.0,0.0,0.0,11400,0,0,0,0,11400
0.0,0.0,0.0,0.0,0.0,0.0,1015.7157592773438,22.219999313354492,10.03799819946289,-0.5062145590782166,0,0,0.0,0.0,0.0,0,False,0.0,0.0,0.0,0.0,0.0,11450,0,0,0,0,11450
0.0,0.0,0.0,0.0,0.0,0.0,1015.7909545898438,22.270000457763672,9.414422035217285,-2.8992762565612793,0,0,0.0,0.0,0.0,0,False,0.0,0.0,0.0,0.0,0.0,11500,0,0,0,0,11500
0.0,0.0,0.0,0.0,0.0,0.0,1015.7909545898438,22.270000457763672,9.414422035217285,-2.3194210529327393,0,0,0.0,0.0,0.0,0,False,0.0,0.0,0.0,0.0,0.0,11550,0,0,0,0,11550
0.0,0.0,0.0,0.0,0.0,0.0,1015.7078247070312,22.209999084472656,10.104055404663086,0.9029966592788696,0,0,0.0,0.0,0.0,0,False,0.0,0.0,0.0,0.0,0.0,11600,0,0,0,0,11600
0.0,0.0,0.0,0.0,0.0,0.0,1015.7078247070312,22.209999084472656,10.104055404663086,0.7223973274230957,0,0,0.0,0.0,0.0,0,False,0.0,0.0,0.0,0.0,0.0,11650,0,0,0,0,11650
0.0,0.0,0.0,0.0,0.0,0.0,1015.6328125,22.15999984741211,10.727632522583008,3.0722262859344482,0,0,0.0,0.0,0.0,0,False,0.0,0.0,0.0,0.0,0.0,11700,0,0,0,0,11700
0.0,0.0,0.0,0.0,0.0,0.0,1015.6328125,22.15999984741211,10.727632522583008,2.4577810764312744,0,0,0.0,0.0,0.0,0,False,0.0,0.0,0.0,0.0,0.0,11750,0,0,0,0,11750
0.0,0.0,0.0,0.0,0.0,0.0,1015.7134399414062,22.209999084472656,10.05649471282959,-0.7183263301849365,0,0,0.0,0.0,0.0,0,False,0.0,0.0,0.0,0.0,0.0,11800,0,0,0,0,11800
0.0,0.0,0.0,0.0,0.0,0.0,1015.7134399414062,22.209999084472656,10.05649471282959,-0.5746610760688782,0,0,0.0,0.0,0.0,0,False,0.0,0.0,0.0,0.0,0.0,11850,0,0,0,0,11850
0.0,0.0,0.0,0.0,0.0,0.0,1015.7882690429688,22.260000228881836,9.43556022644043,-2.943466901779175,0,0,0.0,0.0,0.0,0,False,0.0,0.0,0.0,0.0,0.0,11900,0,0,0,0,11900
0.0,0.0,0.0,0.0,0.0,0.0,1015.7882690429688,22.260000228881836,9.43556022644043,-2.35477352142334,0,0,0.0,0.0,0.0,0,False,0.0,0.0,0.0,0.0,0.0,11950,0,0,0,0,11950
0.0,0.0,0.0,0.0,0.0,0.0,1015.7054443359375,22.209999084472656,10.122550964355469,0.8641440868377686,0,0,0.0,0.0,0.0,0,False,0.0,0.0,0.0,0.0,0.0,12000,0,0,0,0,12000
0.0,0.0,0.0,0.0,0.0,0.0,1015.7054443359375,22.209999084472656,10.122550964355469,0.6913152933120728,0,0,0.0,0.0,0.0,0,False,0.0,0.0,0.0,0.0,0.0,12050,0,0,0,0,12050
0.0,0.0,0.0,0.0,0.0,0.0,1015.6304931640625,22.15999984741211,10.74612808227539,3.04736065864563,0,0,0.0,0.0,0.0,0,False,0.0,0.0,0.0,0.0,0.0,12100,0,0,0,0,12100
0.0,0.0,0.0,0.0,0.0,0.0,1015.6304931640625,22.15999984741211,10.74612808227539,2.4378886222839355,0,0,0.0,0.0,0.0,0,False,0.0,0.0,0.0,0.0,0.0,12150,0,0,0,0,12150
0.0,0.0,0.0,0.0,0.0,0.0,1015.7078247070312,22.209999084472656,10.104055404663086,-0.6179797649383545,0,0,0.0,0.0,0.0,0,False,0.0,0.0,0.0,0.0,0.0,12200,0,0,0,0,12200
0.0,0.0,0.0,0.0,0.0,0.0,1015.7078247070312,22.209999084472656,10.104055404663086,-0.4943838119506836,0,0,0.0,0.0,0.0,0,False,0.0,0.0,0.0,0.0,0.0,12250,0,0,0,0,12250
0.0,0.0,0.0,0.0,0.0,0.0,1015.7843017578125,22.260000228881836,9.46990966796875,-2.9320900440216064,0,0,0.0,0.0,0.0,0,False,0.0,0.0,0.0,0.0,0.0,12300,0,0,0,0,12300
0.0,0.0,0.0,0.0,0.0,0.0,1015.7843017578125,22.260000228881836,9.46990966796875,-2.345672130584717,0,0,0.0,0.0,0.0,0,False,0.0,0.0,0.0,0.0,0.0,12350,0,0,0,0,12350
0.0,0.0,0.0,0.0,0.0,0.0,1015.7039184570312,22.209999084472656,10.135763168334961,0.7868763208389282,0,0,0.0,0.0,0.0,0,False,0.0,0.0,0.0,0.0,0.0,12400,0,0,0,0,12400
0.0,0.0,0.0,0.0,0.0,0.0,1015.7039184570312,22.209999084472656,10.135763168334961,0.6295010447502136,0,0,0.0,0.0,0.0,0,False,0.0,0.0,0.0,0.0,0.0,12450,0,0,0,0,12450
0.0,0.0,0.0,0.0,0.0,0.0,1015.62646484375,22.15999984741211,10.780477523803711,3.082458257675171,0,0,0.0,0.0,0.0,0,False,0.0,0.0,0.0,0.0,0.0,12500,0,0,0,0,12500
0.0,0.0,0.0,0.0,0.0,0.0,1015.62646484375,22.15999984741211,10.780477523803711,2.4659667015075684,0,0,0.0,0.0,0.0,0,False,0.0,0.0,0.0,0.0,0.0,12550,0,0,0,0,12550
0.0,0.0,0.0,0.0,0.0,0.0,1015.7078247070312,22.209999084472656,10.104055404663086,-0.7329150438308716,0,0,0.0,0.0,0.0,0,False,0.0,0.0,0.0,0.0,0.0,12600,0,0,0,0,12600
0.0,0.0,0.0,0.0,0.0,0.0,1015.7078247070312,22.209999084472656,10.104055404663086,-0.5863320231437683,0,0,0.0,0.0,0.0,0,False,0.0,0.0,0.0,0.0,0.0,12650,0,0,0,0,12650
0.0,0.0,0.0,0.0,0.0,0.0,1015.7843017578125,22.260000228881836,9.46990966796875,-3.005648612976074,0,0,0.0,0.0,0.0,0,False,0.0,0.0,0.0,0.0,0.0,12700,0,0,0,0,12700
0.0,0.0,0.0,0.0,0.0,0.0,1015.7843017578125,22.260000228881836,9.46990966796875,-2.4045188426971436,0,0,0.0,0.0,0.0,0,False,0.0,0.0,0.0,0.0,0.0,12750,0,0,0,0,12750
0.0,0.0,0.0,0.0,0.0,0.0,1015.702880859375,22.209999084472656,10.143689155578613,0.7715028524398804,0,0,0.0,0.0,0.0,0,False,0.0,0.0,0.0,0.0,0.0,12800,0,0,0,0,12800
0.0,0.0,0.0,0.0,0.0,0.0,1015.702880859375,22.209999084472656,10.143689155578613,0.6172022819519043,0,0,0.0,0.0,0.0,0,False,0.0,0.0,0.0,0.0,0.0,12850,0,0,0,0,12850
0.0,0.0,0.0,0.0,0.0,0.0,1015.6260986328125,22.149999618530273,10.783120155334473,3.051485776901245,0,0,0.0,0.0,0.0,0,False,0.0,0.0,0.0,0.0,0.0,12900,0,0,0,0,12900
0.0,0.0,0.0,0.0,0.0,0.0,1015.6260986328125,22.149999618530273,10.783120155334473,2.4411885738372803,0,0,0.0,0.0,0.0,0,False,0.0,0.0,0.0,0.0,0.0,12950,0,0,0,0,12950
0.0,0.0,0.0,0.0,0.0,0.0,1015.71044921875,22.209999084472656,10.082917213439941,-0.8478609323501587,0,0,0.0,0.0,0.0,0,False,0.0,0.0,0.0,0.0,0.0,13000,0,0,0,0,13000
0.0,0.0,0.0,0.0,0.0,0.0,1015.71044921875,22.209999084472656,10.082917213439941,-0.6782887578010559,0,0,0.0,0.0,0.0,0,False,0.0,0.0,0.0,0.0,0.0,13050,0,0,0,0,13050
0.0,0.0,0.0,0.0,0.0,0.0,1015.786865234375,22.260000228881836,9.448771476745605,-3.079214096069336,0,0,0.0,0.0,0.0,0,False,0.0,0.0,0.0,0.0,0.0,13100,0,0,0,0,13100
0.0,0.0,0.0,0.0,0.0,0.0,1015.786865234375,22.260000228881836,9.448771476745605,-2.4633712768554688,0,0,0.0,0.0,0.0,0,False,0.0,0.0,0.0,0.0,0.0,13150,0,0,0,0,13150
0.0,0.0,0.0,0.0,0.0,0.0,1015.6998291015625,22.200000762939453,10.170112609863281,0.9146674871444702,0,0,0.0,0.0,0.0,0,False,0.0,0.0,0.0,0.0,0.0,13200,0,0,0,0,13200
0.0,0.0,0.0,0.0,0.0,0.0,1015.6998291015625,22.200000762939453,10.170112609863281,0.7317339777946472,0,0,0.0,0.0,0.0,0,False,0.0,0.0,0.0,0.0,0.0,13250,0,0,0,0,13250
0.0,0.0,0.0,0.0,0.0,0.0,1015.6250610351562,22.149999618530273,10.791046142578125,3.0691213607788086,0,0,0.0,0.0,0.0,0,False,0.0,0.0,0.0,0.0,0.0,13300,0,0,0,0,13300
0.0,0.0,0.0,0.0,0.0,0.0,1015.6250610351562,22.149999618530273,10.791046142578125,2.4552972316741943,0,0,0.0,0.0,0.0,0,False,0.0,0.0,0.0,0.0,0.0,13350,0,0,0,0,13350
0.0,0.0,0.0,0.0,0.0,0.0,1015.703857421875,22.200000762939453,10.135763168334961,-0.6568940877914429,0,0,0.0,0.0,0.0,0,False,0.0,0.0,0.0,0.0,0.0,13400,0,0,0,0,13400
0.0,0.0,0.0,0.0,0.0,0.0,1015.703857421875,22.200000762939453,10.135763168334961,-0.5255152583122253,0,0,0.0,0.0,0.0,0,False,0.0,0.0,0.0,0.0,0.0,13450,0,0,0,0,13450
0.0,0.0,0.0,0.0,0.0,0.0,1015.7828369140625,22.25,9.480478286743164,-3.0415518283843994,0,0,0.0,0.0,0.0,0,False,0.0,0.0,0.0,0.0,0.0,13500,0,0,0,0,13500
0.0,0.0,0.0,0.0,0.0,0.0,1015.7828369140625,22.25,9.480478286743164,-2.433241605758667,0,0,0.0,0.0,0.0,0,False,0.0,0.0,0.0,0.0,0.0,13550,0,0,0,0,13550
0.0,0.0,0.0,0.0,0.0,0.0,1015.7014770507812,22.200000762939453,10.156900405883789,0.7590951919555664,0,0,0.0,0.0,0.0,0,False,0.0,0.0,0.0,0.0,0.0,13600,0,0,0,0,13600
0.0,0.0,0.0,0.0,0.0,0.0,1015.7014770507812,22.200000762939453,10.156900405883789,0.6072761416435242,0,0,0.0,0.0,0.0,0,False,0.0,0.0,0.0,0.0,0.0,13650,0,0,0,0,13650
0.0,0.0,0.0,0.0,0.0,0.0,1015.62109375,22.149999618530273,10.825396537780762,3.107374429702759,0,0,0.0,0.0,0.0,0,False,0.0,0.0,0.0,0.0,0.0,13701,0,0,0,0,13701
0.0,0.0,0.0,0.0,0.0,0.0,1015.62109375,22.149999618530273,10.825396537780762,2.4858996868133545,0,0,0.0,0.0,0.0,0,False,0.0,0.0,0.0,0.0,0.0,13751,0,0,0,0,13751
0.0,0.0,0.0,0.0,0.0,0.0,1015.703857421875,22.200000762939453,10.135763168334961,-0.7698136568069458,0,0,0.0,0.0,0.0,0,False,0.0,0.0,0.0,0.0,0.0,13801,0,0,0,0,13801
0.0,0.0,0.0,0.0,0.0,0.0,1015.703857421875,22.200000762939453,10.135763168334961,-0.6158509254455566,0,0,0.0,0.0,0.0,0,False,0.0,0.0,0.0,0.0,0.0,13851,0,0,0,0,13851
0.0,0.0,0.0,0.0,0.0,0.0,1015.780517578125,22.25,9.498974800109863,-3.0398342609405518,0,0,0.0,0.0,0.0,0,False,0.0,0.0,0.0,0.0,0.0,13901,0,0,0,0,13901
0.0,0.0,0.0,0.0,0.0,0.0,1015.780517578125,22.25,9.498974800109863,-2.4318673610687256,0,0,0.0,0.0,0.0,0,False,0.0,0.0,0.0,0.0,0.0,13952,0,0,0,0,13952
0.0,0.0,0.0,0.0,0.0,0.0,1015.6991577148438,22.200000762939453,10.175396919250488,0.7601945400238037,0,0,0.0,0.0,0.0,0,False,0.0,0.0,0.0,0.0,0.0,14002,0,0,0,0,14002
0.0,0.0,0.0,0.0,0.0,0.0,1015.6991577148438,22.200000762939453,10.175396919250488,0.6081556677818298,0,0,0.0,0.0,0.0,0,False,0.0,0.0,0.0,0.0,0.0,14052,0,0,0,0,14052
0.0,0.0,0.0,0.0,0.0,0.0,1015.6243896484375,22.149999618530273,10.796331405639648,2.9702625274658203,0,0,0.0,0.0,0.0,0,False,0.0,0.0,0.0,0.0,0.0,14102,0,0,0,0,14102
0.0,0.0,0.0,0.0,0.0,0.0,1015.6243896484375,22.149999618530273,10.796331405639648,2.3762099742889404,0,0,0.0,0.0,0.0,0,False,0.0,0.0,0.0,0.0,0.0,14152,0,0,0,0,14152
0.0,0.0,0.0,0.0,0.0,0.0,1015.708740234375,22.200000762939453,10.096128463745117,-0.8998438119888306,0,0,0.0,0.0,0.0,0,False,0.0,0.0,0.0,0.0,0.0,14202,0,0,0,0,14202
0.0,0.0,0.0,0.0,0.0,0.0,1015.708740234375,22.200000762939453,10.096128463745117,-0.7198750376701355,0,0,0.0,0.0,0.0,0,False,0.0,0.0,0.0,0.0,0.0,14252,0,0,0,0,14252
0.0,0.0,0.0,0.0,0.0,0.0,1015.7854614257812,22.25,9.459341049194336,-3.123049736022949,0,0,0.0,0.0,0.0,0,False,0.0,0.0,0.0,0.0,0.0,14302,0,0,0,0,14302
0.0,0.0,0.0,0.0,0.0,0.0,1015.7854614257812,22.25,9.459341049194336,-2.4984397888183594,0,0,0.0,0.0,0.0,0,False,0.0,0.0,0.0,0.0,0.0,14352,0,0,0,0,14352
0.0,0.0,0.0,0.0,0.0,0.0,1015.7040405273438,22.200000762939453,10.135763168334961,0.7069365978240967,0,0,0.0,0.0,0.0,0,False,0.0,0.0,0.0,0.0,0.0,14402,0,0,0,0,14402
0.0,0.0,0.0,0.0,0.0,0.0,1015.7040405273438,22.200000762939453,10.135763168334961,0.5655493140220642,0,0,0.0,0.0,0.0,0,False,0.0,0.0,0.0,0.0,0.0,14452,0,0,0,0,14452
0.0,0.0,0.0,0.0,0.0,0.0,1015.6292724609375,22.149999618530273,10.756696701049805,2.936173677444458,0,0,0.0,0.0,0.0,0,False,0.0,0.0,0.0,0.0,0.0,14502,0,0,0,0,14502
0.0,0.0,0.0,0.0,0.0,0.0,1015.6292724609375,22.149999618530273,10.756696701049805,2.3489389419555664,0,0,0.0,0.0,0.0,0,False,0.0,0.0,0.0,0.0,0.0,14552,0,0,0,0,14552
0.0,0.0,0.0,0.0,0.0,0.0,1015.7064208984375,22.200000762939453,10.1146240234375,-0.6891394853591919,0,0,0.0,0.0,0.0,0,False,0.0,0.0,0.0,0.0,0.0,14602,0,0,0,0,14602
0.0,0.0,0.0,0.0,0.0,0.0,1015.7064208984375,22.200000762939453,10.1146240234375,-0.5513116121292114,0,0,0.0,0.0,0.0,0,False,0.0,0.0,0.0,0.0,0.0,14652,0,0,0,0,14652
0.0,0.0,0.0,0.0,0.0,0.0,1015.7828369140625,22.25,9.480478286743164,-2.9776322841644287,0,0,0.0,0.0,0.0,0,False,0.0,0.0,0.0,0.0,0.0,14702,0,0,0,0,14702
0.0,0.0,0.0,0.0,0.0,0.0,1015.7056274414062,22.25,10.122550964355469,0.18618488311767578,0,0,0.0,0.0,0.0,0,False,0.0,0.0,0.0,0.0,0.0,14752,0,0,0,0,14752
0.0,0.0,0.0,0.0,0.0,0.0,1015.7056274414062,22.200000762939453,10.122550964355469,0.14894790947437286,0,0,0.0,0.0,0.0,0,False,0.0,0.0,0.0,0.0,0.0,14802,0,0,0,0,14802
0.0,0.0,0.0,0.0,0.0,0.0,1015.7073364257812,22.200000762939453,10.106698036193848,0.055746614933013916,0,0,0.0,0.0,0.0,0,False,0.0,0.0,0.0,0.0,0.0,14852,0,0,0,0,14852
0.0,0.0,0.0,0.0,0.0,0.0,1015.626953125,22.149999618530273,10.775193214416504,2.666147232055664,0,0,0.0,0.0,0.0,0,False,0.0,0.0,0.0,0.0,0.0,14903,0,0,0,0,14903
0.0,0.0,0.0,0.0,0.0,0.0,1015.709716796875,22.200000762939453,10.088201522827148,-0.615048885345459,0,0,0.0,0.0,0.0,0,False,0.0,0.0,0.0,0.0,0.0,14953,0,0,0,0,14953
0.0,0.0,0.0,0.0,0.0,0.0,1015.709716796875,22.200000762939453,10.088201522827148,-0.49203911423683167,0,0,0.0,0.0,0.0,0,False,0.0,0.0,0.0,0.0,0.0,15003,0,0,0,0,15003
0.0,0.0,0.0,0.0,0.0,0.0,1015.7876586914062,22.25,9.440844535827637,-2.9830591678619385,0,0,0.0,0.0,0.0,0,False,0.0,0.0,0.0,0.0,0.0,15053,0,0,0,0,15053
0.0,0.0,0.0,0.0,0.0,0.0,1015.7876586914062,22.25,9.440844535827637,-2.3864474296569824,0,0,0.0,0.0,0.0,0,False,0.0,0.0,0.0,0.0,0.0,15104,0,0,0,0,15104
0.0,0.0,0.0,0.0,0.0,0.0,1015.7047119140625,22.200000762939453,10.130477905273438,0.8493754863739014,0,0,0.0,0.0,0.0,0,False,0.0,0.0,0.0,0.0,0.0,15154,0,0,0,0,15154
0.0,0.0,0.0,0.0,0.0,0.0,1015.7047119140625,22.200000762939453,10.130477905273438,0.67950040102005,0,0,0.0,0.0,0.0,0,False,0.0,0.0,0.0,0.0,0.0,15204,0,0,0,0,15204
0.0,0.0,0.0,0.0,0.0,0.0,1015.6318969726562,22.149999618530273,10.732916831970215,2.9533560276031494,0,0,0.0,0.0,0.0,0,False,0.0,0.0,0.0,0.0,0.0,15254,0,0,0,0,15254
0.0,0.0,0.0,0.0,0.0,0.0,1015.6318969726562,22.149999618530273,10.732916831970215,2.362684965133667,0,0,0.0,0.0,0.0,0,False,0.0,0.0,0.0,0.0,0.0,15304,0,0,0,0,15304
0.0,0.0,0.0,0.0,0.0,0.0,1015.7145385742188,22.200000762939453,10.048567771911621,-0.8472481966018677,0,0,0.0,0.0,0.0,0,False,0.0,0.0,0.0,0.0,0.0,15354,0,0,0,0,15354
0.0,0.0,0.0,0.0,0.0,0.0,1015.7145385742188,22.200000762939453,10.048567771911621,-0.6777985692024231,0,0,0.0,0.0,0.0,0,False,0.0,0.0,0.0,0.0,0.0,15404,0,0,0,0,15404
0.0,0.0,0.0,0.0,0.0,0.0,1015.7893676757812,22.25,9.427633285522461,-3.0259768962860107,0,0,0.0,0.0,0.0,0,False,0.0,0.0,0.0,0.0,0.0,15454,0,0,0,0,15454
0.0,0.0,0.0,0.0,0.0,0.0,1015.7893676757812,22.25,9.427633285522461,-2.4207816123962402,0,0,0.0,0.0,0.0,0,False,0.0,0.0,0.0,0.0,0.0,15504,0,0,0,0,15504
0.0,0.0,0.0,0.0,0.0,0.0,1015.7079467773438,22.200000762939453,10.104055404663086,0.7690631151199341,0,0,0.0,0.0,0.0,0,False,0.0,0.0,0.0,0.0,0.0,15554,0,0,0,0,15554
0.0,0.0,0.0,0.0,0.0,0.0,1015.7079467773438,22.200000762939453,10.104055404663086,0.6152505278587341,0,0,0.0,0.0,0.0,0,False,0.0,0.0,0.0,0.0,0.0,15604,0,0,0,0,15604
0.0,0.0,0.0,0.0,0.0,0.0,1015.6295166015625,22.139999389648438,10.75405502319336,3.0921988487243652,0,0,0.0,0.0,0.0,0,False,0.0,0.0,0.0,0.0,0.0,15654,0,0,0,0,15654
0.0,0.0,0.0,0.0,0.0,0.0,1015.6295166015625,22.139999389648438,10.75405502319336,2.473759174346924,0,0,0.0,0.0,0.0,0,False,0.0,0.0,0.0,0.0,0.0,15705,0,0,0,0,15705
0.0,0.0,0.0,0.0,0.0,0.0,1015.712158203125,22.200000762939453,10.067063331604004,-0.7689594030380249,0,0,0.0,0.0,0.0,0,False,0.0,0.0,0.0,0.0,0.0,15755,0,0,0,0,15755
0.0,0.0,0.0,0.0,0.0,0.0,1015.712158203125,22.200000762939453,10.067063331604004,-0.6151675581932068,0,0,0.0,0.0,0.0,0,False,0.0,0.0,0.0,0.0,0.0,15805,0,0,0,0,15805
0.0,0.0,0.0,0.0,0.0,0.0,1015.78857421875,22.25,9.432917594909668,-3.028717041015625,0,0,0.0,0.0,0.0,0,False,0.0,0.0,0.0,0.0,0.0,15855,0,0,0,0,15855
0.0,0.0,0.0,0.0,0.0,0.0,1015.78857421875,22.25,9.432917594909668,-2.4229736328125,0,0,0.0,0.0,0.0,0,False,0.0,0.0,0.0,0.0,0.0,15905,0,0,0,0,15905
0.0,0.0,0.0,0.0,0.0,0.0,1015.7072143554688,22.190000534057617,10.109339714050293,0.7673095464706421,0,0,0.0,0.0,0.0,0,False,0.0,0.0,0.0,0.0,0.0,15955,0,0,0,0,15955
0.0,0.0,0.0,0.0,0.0,0.0,1015.7072143554688,22.190000534057617,10.109339714050293,0.6138476729393005,0,0,0.0,0.0,0.0,0,False,0.0,0.0,0.0,0.0,0.0,16005,0,0,0,0,16005
0.0,0.0,0.0,0.0,0.0,0.0,1015.6343994140625,22.139999389648438,10.714420318603516,2.911400556564331,0,0,0.0,0.0,0.0,0,False,0.0,0.0,0.0,0.0,0.0,16055,0,0,0,0,16055
0.0,0.0,0.0,0.0,0.0,0.0,1015.6343994140625,22.139999389648438,10.714420318603516,2.329120397567749,0,0,0.0,0.0,0.0,0,False,0.0,0.0,0.0,0.0,0.0,16105,0,0,0,0,16105
0.0,0.0,0.0,0.0,0.0,0.0,1015.7171020507812,22.200000762939453,10.027429580688477,-0.8846665620803833,0,0,0.0,0.0,0.0,0,False,0.0,0.0,0.0,0.0,0.0,16155,0,0,0,0,16155
0.0,0.0,0.0,0.0,0.0,0.0,1015.7171020507812,22.200000762939453,10.027429580688477,-0.7077332735061646,0,0,0.0,0.0,0.0,0,False,0.0,0.0,0.0,0.0,0.0,16205,0,0,0,0,16205
0.0,0.0,0.0,0.0,0.0,0.0,1015.7918701171875,22.25,9.406495094299316,-3.0012240409851074,0,0,0.0,0.0,0.0,0,False,0.0,0.0,0.0,0.0,0.0,16256,0,0,0,0,16256
0.0,0.0,0.0,0.0,0.0,0.0,1015.7918701171875,22.25,9.406495094299316,-2.4009792804718018,0,0,0.0,0.0,0.0,0,False,0.0,0.0,0.0,0.0,0.0,16306,0,0,0,0,16306
0.0,0.0,0.0,0.0,0.0,0.0,1015.7072143554688,22.190000534057617,10.109339714050293,0.8905950784683228,0,0,0.0,0.0,0.0,0,False,0.0,0.0,0.0,0.0,0.0,16356,0,0,0,0,16356
0.0,0.0,0.0,0.0,0.0,0.0,1015.7072143554688,22.190000534057617,10.109339714050293,0.7124760746955872,0,0,0.0,0.0,0.0,0,False,0.0,0.0,0.0,0.0,0.0,16406,0,0,0,0,16406
0.0,0.0,0.0,0.0,0.0,0.0,1015.6287231445312,22.139999389648438,10.761981964111328,3.1805498600006104,0,0,0.0,0.0,0.0,0,False,0.0,0.0,0.0,0.0,0.0,16456,0,0,0,0,16456
0.0,0.0,0.0,0.0,0.0,0.0,1015.6287231445312,22.139999389648438,10.761981964111328,2.5444400310516357,0,0,0.0,0.0,0.0,0,False,0.0,0.0,0.0,0.0,0.0,16508,0,0,0,0,16508
0.0,0.0,0.0,0.0,0.0,0.0,1015.7128295898438,22.200000762939453,10.061779022216797,-0.7652597427368164,0,0,0.0,0.0,0.0,0,False,0.0,0.0,0.0,0.0,0.0,16558,0,0,0,0,16558
0.0,0.0,0.0,0.0,0.0,0.0,1015.7128295898438,22.200000762939453,10.061779022216797,-0.61220782995224,0,0,0.0,0.0,0.0,0,False,0.0,0.0,0.0,0.0,0.0,16608,0,0,0,0,16608
0.0,0.0,0.0,0.0,0.0,0.0,1015.7879638671875,22.239999771118164,9.438201904296875,-2.984074831008911,0,0,0.0,0.0,0.0,0,False,0.0,0.0,0.0,0.0,0.0,16658,0,0,0,0,16658
0.0,0.0,0.0,0.0,0.0,0.0,1015.7879638671875,22.239999771118164,9.438201904296875,-2.3872599601745605,0,0,0.0,0.0,0.0,0,False,0.0,0.0,0.0,0.0,0.0,16708,0,0,0,0,16708
0.0,0.0,0.0,0.0,0.0,0.0,1015.7052612304688,22.190000534057617,10.12519359588623,0.8381587266921997,0,0,0.0,0.0,0.0,0,False,0.0,0.0,0.0,0.0,0.0,16758,0,0,0,0,16758
0.0,0.0,0.0,0.0,0.0,0.0,1015.7052612304688,22.190000534057617,10.12519359588623,0.6705269813537598,0,0,0.0,0.0,0.0,0,False,0.0,0.0,0.0,0.0,0.0,16808,0,0,0,0,16808
0.0,0.0,0.0,0.0,0.0,0.0,1015.6320190429688,22.139999389648438,10.732916831970215,2.9673144817352295,0,0,0.0,0.0,0.0,0,False,0.0,0.0,0.0,0.0,0.0,16858,0,0,0,0,16858
0.0,0.0,0.0,0.0,0.0,0.0,1015.6320190429688,22.139999389648438,10.732916831970215,2.3738515377044678,0,0,0.0,0.0,0.0,0,False,0.0,0.0,0.0,0.0,0.0,16909,0,0,0,0,16909
0.0,0.0,0.0,0.0,0.0,0.0,1015.7145385742188,22.200000762939453,10.048567771911621,-0.8383150100708008,0,0,0.0,0.0,0.0,0,False,0.0,0.0,0.0,0.0,0.0,16959,0,0,0,0,16959
0.0,0.0,0.0,0.0,0.0,0.0,1015.7145385742188,22.200000762939453,10.048567771911621,-0.6706520318984985,0,0,0.0,0.0,0.0,0,False,0.0,0.0,0.0,0.0,0.0,17009,0,0,0,0,17009
0.0,0.0,0.0,0.0,0.0,0.0,1015.78955078125,22.239999771118164,9.4249906539917,-3.030830144882202,0,0,0.0,0.0,0.0,0,False,0.0,0.0,0.0,0.0,0.0,17059,0,0,0,0,17059
0.0,0.0,0.0,0.0,0.0,0.0,1015.78955078125,22.239999771118164,9.4249906539917,-2.424664258956909,0,0,0.0,0.0,0.0,0,False,0.0,0.0,0.0,0.0,0.0,17110,0,0,0,0,17110
0.0,0.0,0.0,0.0,0.0,0.0,1015.7283325195312,22.200000762939453,9.932307243347168,0.08953487873077393,0,0,0.0,0.0,0.0,0,False,0.0,0.0,0.0,0.0,0.0,17160,0,0,0,0,17160
0.0,0.0,0.0,0.0,0.0,0.0,1015.7283325195312,22.200000762939453,9.932307243347168,0.0716279074549675,0,0,0.0,0.0,0.0,0,False,0.0,0.0,0.0,0.0,0.0,17210,0,0,0,0,17210
0.0,0.0,0.0,0.0,0.0,0.0,1015.6654663085938,22.15999984741211,10.455477714538574,2.149984121322632,0,0,0.0,0.0,0.0,0,False,0.0,0.0,0.0,0.0,0.0,17260,0,0,0,0,17260
0.0,0.0,0.0,0.0,0.0,0.0,1015.6654663085938,22.15999984741211,10.455477714538574,1.7199872732162476,0,0,0.0,0.0,0.0,0,False,0.0,0.0,0.0,0.0,0.0,17310,0,0,0,0,17310
0.0,0.0,0.0,0.0,0.0,0.0,1015.7445068359375,22.209999084472656,9.800193786621094,-1.2451459169387817,0,0,0.0,0.0,0.0,0,False,0.0,0.0,0.0,0.0,0.0,17360,0,0,0,0,17360
0.0,0.0,0.0,0.0,0.0,0.0,1015.7445068359375,22.209999084472656,9.800193786621094,-0.9961167573928833,0,0,0.0,0.0,0.0,0,False,0.0,0.0,0.0,0.0,0.0,17410,0,0,0,0,17410
0.0,0.0,0.0,0.0,0.0,0.0,1015.817626953125,22.260000228881836,9.19247055053711,-3.2277863025665283,0,0,0.0,0.0,0.0,0,False,0.0,0.0,0.0,0.0,0.0,17460,0,0,0,0,17460
0.0,0.0,0.0,0.0,0.0,0.0,1015.817626953125,22.260000228881836,9.19247055053711,-2.5822291374206543,0,0,0.0,0.0,0.0,0,False,0.0,0.0,0.0,0.0,0.0,17510,0,0,0,0,17510
0.0,0.0,0.0,0.0,0.0,0.0,1015.7468872070312,22.219999313354492,9.77905559539795,0.28055691719055176,0,0,0.0,0.0,0.0,0,False,0.0,0.0,0.0,0.0,0.0,17560,0,0,0,0,17560
0.0,0.0,0.0,0.0,0.0,0.0,1015.7468872070312,22.219999313354492,9.77905559539795,0.22444553673267365,0,0,0.0,0.0,0.0,0,False,0.0,0.0,0.0,0.0,0.0,17610,0,0,0,0,17610
0.0,0.0,0.0,0.0,0.0,0.0,1015.6800537109375,22.170000076293945,10.333932876586914,2.3990654945373535,0,0,0.0,0.0,0.0,0,False,0.0,0.0,0.0,0.0,0.0,17660,0,0,0,0,17660
0.0,0.0,0.0,0.0,0.0,0.0,1015.6800537109375,22.170000076293945,10.333932876586914,1.9192523956298828,0,0,0.0,0.0,0.0,0,False,0.0,0.0,0.0,0.0,0.0,17710,0,0,0,0,17710
0.0,0.0,0.0,0.0,0.0,0.0,1015.7591552734375,22.219999313354492,9.678648948669434,-1.0857337713241577,0,0,0.0,0.0,0.0,0,False,0.0,0.0,0.0,0.0,0.0,17760,0,0,0,0,17760
0.0,0.0,0.0,0.0,0.0,0.0,1015.7591552734375,22.219999313354492,9.678648948669434,-0.8685870170593262,0,0,0.0,0.0,0.0,0,False,0.0,0.0,0.0,0.0,0.0,17810,0,0,0,0,17810
0.0,0.0,0.0,0.0,0.0,0.0,1015.8298950195312,22.270000457763672,9.089422225952148,-3.05177640914917,0,0,0.0,0.0,0.0,0,False,0.0,0.0,0.0,0.0,0.0,17860,0,0,0,0,17860
0.0,0.0,0.0,0.0,0.0,0.0,1015.8298950195312,22.270000457763672,9.089422225952148,-2.4414212703704834,0,0,0.0,0.0,0.0,0,False,0.0,0.0,0.0,0.0,0.0,17910,0,0,0,0,17910
0.0,0.0,0.0,0.0,0.0,0.0,1015.7528076171875,22.219999313354492,9.731494903564453,0.6151536703109741,0,0,0.0,0.0,0.0,0,False,0.0,0.0,0.0,0.0,0.0,17960,0,0,0,0,17960
0.0,0.0,0.0,0.0,0.0,0.0,1015.7528076171875,22.219999313354492,9.731494903564453,0.49212294816970825,0,0,0.0,0.0,0.0,0,False,0.0,0.0,0.0,0.0,0.0,18010,0,0,0,0,18010
0.0,0.0,0.0,0.0,0.0,0.0,1015.677734375,22.170000076293945,10.352429389953613,2.877436399459839,0,0,0.0,0.0,0.0,0,False,0.0,0.0,0.0,0.0,0.0,18060,0,0,0,0,18060
0.0,0.0,0.0,0.0,0.0,0.0,1015.677734375,22.170000076293945,10.352429389953613,2.3019492626190186,0,0,0.0,0.0,0.0,0,False,0.0,0.0,0.0,0.0,0.0,18111,0,0,0,0,18111
0.0,0.0,0.0,0.0,0.0,0.0,1015.7528076171875,22.219999313354492,9.731494903564453,-0.6421785354614258,0,0,0.0,0.0,0.0,0,False,0.0,0.0,0.0,0.0,0.0,18161,0,0,0,0,18161
0.0,0.0,0.0,0.0,0.0,0.0,1015.7528076171875,22.219999313354492,9.731494903564453,-0.5137428641319275,0,0,0.0,0.0,0.0,0,False,0.0,0.0,0.0,0.0,0.0,18211,0,0,0,0,18211
0.0,0.0,0.0,0.0,0.0,0.0,1015.8275756835938,22.270000457763672,9.110560417175293,-2.846031665802002,0,0,0.0,0.0,0.0,0,False,0.0,0.0,0.0,0.0,0.0,18262,0,0,0,0,18262
0.0,0.0,0.0,0.0,0.0,0.0,1015.8275756835938,22.270000457763672,9.110560417175293,-2.276825428009033,0,0,0.0,0.0,0.0,0,False,0.0,0.0,0.0,0.0,0.0,18312,0,0,0,0,18312
0.0,0.0,0.0,0.0,0.0,0.0,1015.7461547851562,22.209999084472656,9.784339904785156,0.8736575841903687,0,0,0.0,0.0,0.0,0,False,0.0,0.0,0.0,0.0,0.0,18362,0,0,0,0,18362
0.0,0.0,0.0,0.0,0.0,0.0,1015.7461547851562,22.209999084472656,9.784339904785156,0.6989260911941528,0,0,0.0,0.0,0.0,0,False,0.0,0.0,0.0,0.0,0.0,18412,0,0,0,0,18412
0.0,0.0,0.0,0.0,0.0,0.0,1015.6615600585938,22.15999984741211,10.48718547821045,3.37052321434021,0,0,0.0,0.0,0.0,0,False,0.0,0.0,0.0,0.0,0.0,18462,0,0,0,0,18462
0.0,0.0,0.0,0.0,0.0,0.0,1015.6615600585938,22.15999984741211,10.48718547821045,2.696418523788452,0,0,0.0,0.0,0.0,0,False,0.0,0.0,0.0,0.0,0.0,18512,0,0,0,0,18512
0.0,0.0,0.0,0.0,0.0,0.0,1015.7388916015625,22.209999084472656,9.845112800598145,-0.41115593910217285,0,0,0.0,0.0,0.0,0,False,0.0,0.0,0.0,0.0,0.0,18562,0,0,0,0,18562
0.0,0.0,0.0,0.0,0.0,0.0,1015.7388916015625,22.209999084472656,9.845112800598145,-0.3289247453212738,0,0,0.0,0.0,0.0,0,False,0.0,0.0,0.0,0.0,0.0,18612,0,0,0,0,18612
0.0,0.0,0.0,0.0,0.0,0.0,1015.813720703125,22.260000228881836,9.224178314208984,-2.746877670288086,0,0,0.0,0.0,0.0,0,False,0.0,0.0,0.0,0.0,0.0,18662,0,0,0,0,18662
0.0,0.0,0.0,0.0,0.0,0.0,1015.813720703125,22.260000228881836,9.224178314208984,-2.1975021362304688,0,0,0.0,0.0,0.0,0,False,0.0,0.0,0.0,0.0,0.0,18712,0,0,0,0,18712
0.0,0.0,0.0,0.0,0.0,0.0,1015.724365234375,22.200000762939453,9.966657638549805,1.2119156122207642,0,0,0.0,0.0,0.0,0,False,0.0,0.0,0.0,0.0,0.0,18762,0,0,0,0,18762
0.0,0.0,0.0,0.0,0.0,0.0,1015.724365234375,22.200000762939453,9.966657638549805,0.9695324897766113,0,0,0.0,0.0,0.0,0,False,0.0,0.0,0.0,0.0,0.0,18812,0,0,0,0,18812
0.0,0.0,0.0,0.0,0.0,0.0,1015.6376342773438,22.139999389648438,10.687997817993164,3.6609866619110107,0,0,0.0,0.0,0.0,0,False,0.0,0.0,0.0,0.0,0.0,18862,0,0,0,0,18862
0.0,0.0,0.0,0.0,0.0,0.0,1015.6376342773438,22.139999389648438,10.687997817993164,2.9287893772125244,0,0,0.0,0.0,0.0,0,False,0.0,0.0,0.0,0.0,0.0,18912,0,0,0,0,18912
0.0,0.0,0.0,0.0,0.0,0.0,1015.720458984375,22.200000762939453,9.998364448547363,-0.41550183296203613,0,0,0.0,0.0,0.0,0,False,0.0,0.0,0.0,0.0,0.0,18962,0,0,0,0,18962
0.0,0.0,0.0,0.0,0.0,0.0,1015.720458984375,22.200000762939453,9.998364448547363,-0.33240148425102234,0,0,0.0,0.0,0.0,0,False,0.0,0.0,0.0,0.0,0.0,19012,0,0,0,0,19012
0.0,0.0,0.0,0.0,0.0,0.0,1015.795166015625,22.25,9.377429962158203,-2.7496590614318848,0,0,0.0,0.0,0.0,0,False,0.0,0.0,0.0,0.0,0.0,19062,0,0,0,0,19062
0.0,0.0,0.0,0.0,0.0,0.0,1015.795166015625,22.25,9.377429962158203,-2.1997272968292236,0,0,0.0,0.0,0.0,0,False,0.0,0.0,0.0,0.0,0.0,19112,0,0,0,0,19112
0.0,0.0,0.0,0.0,0.0,0.0,1015.7045288085938,22.190000534057617,10.130477905273438,1.2524099349975586,0,0,0.0,0.0,0.0,0,False,0.0,0.0,0.0,0.0,0.0,19162,0,0,0,0,19162
0.0,0.0,0.0,0.0,0.0,0.0,1015.7045288085938,22.190000534057617,10.130477905273438,1.0019279718399048,0,0,0.0,0.0,0.0,0,False,0.0,0.0,0.0,0.0,0.0,19212,0,0,0,0,19212
0.0,0.0,0.0,0.0,0.0,0.0,1015.6271362304688,22.139999389648438,10.775193214416504,3.380403518676758,0,0,0.0,0.0,0.0,0,False,0.0,0.0,0.0,0.0,0.0,19262,0,0,0,0,19262
0.0,0.0,0.0,0.0,0.0,0.0,1015.6271362304688,22.139999389648438,10.775193214416504,2.7043228149414062,0,0,0.0,0.0,0.0,0,False,0.0,0.0,0.0,0.0,0.0,19312,0,0,0,0,19312
0.0,0.0,0.0,0.0,0.0,0.0,1015.6843872070312,22.18000030517578,10.296941757202148,0.6689225435256958,0,0,0.0,0.0,0.0,0,False,0.0,0.0,0.0,0.0,0.0,19376,0,0,0,0,19376
0.0,0.0,0.0,0.0,0.0,0.0,1015.6843872070312,22.18000030517578,10.296941757202148,0.5351380705833435,0,0,0.0,0.0,0.0,0,False,0.0,0.0,0.0,0.0,0.0,19426,0,0,0,0,19426
0.0,0.0,0.0,0.0,0.0,0.0,1015.7591552734375,22.219999313354492,9.678648948669434,-2.045060873031616,0,0,0.0,0.0,0.0,0,False,0.0,0.0,0.0,0.0,0.0,19476,0,0,0,0,19476
0.0,0.0,0.0,0.0,0.0,0.0,1015.7591552734375,22.219999313354492,9.678648948669434,-1.636048674583435,0,0,0.0,0.0,0.0,0,False,0.0,0.0,0.0,0.0,0.0,19526,0,0,0,0,19526
0.0,0.0,0.0,0.0,0.0,0.0,1015.6800537109375,22.170000076293945,10.333932876586914,1.312296748161316,0,0,0.0,0.0,0.0,0,False,0.0,0.0,0.0,0.0,0.0,19576,0,0,0,0,19576
0.0,0.0,0.0,0.0,0.0,0.0,1015.6800537109375,22.170000076293945,10.333932876586914,1.0498374700546265,0,0,0.0,0.0,0.0,0,False,0.0,0.0,0.0,0.0,0.0,19627,0,0,0,0,19627
0.0,0.0,0.0,0.0,0.0,0.0,1015.6093139648438,22.1299991607666,10.923160552978516,3.1967806816101074,0,0,0.0,0.0,0.0,0,False,0.0,0.0,0.0,0.0,0.0,19677,0,0,0,0,19677
0.0,0.0,0.0,0.0,0.0,0.0,1015.6093139648438,22.1299991607666,10.923160552978516,2.557424545288086,0,0,0.0,0.0,0.0,0,False,0.0,0.0,0.0,0.0,0.0,19727,0,0,0,0,19727
0.0,0.0,0.0,0.0,0.0,0.0,1015.650634765625,22.149999618530273,10.57966423034668,0.8815454244613647,0,0,0.0,0.0,0.0,0,False,0.0,0.0,0.0,0.0,0.0,19786,0,0,0,0,19786
0.0,0.0,0.0,0.0,0.0,0.0,1015.7290649414062,22.149999618530273,9.927022933959961,-1.9053287506103516,0,0,0.0,0.0,0.0,0,False,0.0,0.0,0.0,0.0,0.0,19836,0,0,0,0,19836
0.0,0.0,0.0,0.0,0.0,0.0,1015.7290649414062,22.209999084472656,9.927022933959961,-1.5242630243301392,0,0,0.0,0.0,0.0,0,False,0.0,0.0,0.0,0.0,0.0,19886,0,0,0,0,19886
0.0,0.0,0.0,0.0,0.0,0.0,1015.730712890625,22.209999084472656,9.913811683654785,-1.2722554206848145,0,0,0.0,0.0,0.0,0,False,0.0,0.0,0.0,0.0,0.0,19936,0,0,0,0,19936
0.0,0.0,0.0,0.0,0.0,0.0,1015.6542358398438,22.15999984741211,10.547957420349121,1.5187785625457764,0,0,0.0,0.0,0.0,0,False,0.0,0.0,0.0,0.0,0.0,19986,0,0,0,0,19986
0.0,0.0,0.0,0.0,0.0,0.0,1015.579833984375,22.15999984741211,11.16624927520752,3.688190460205078,0,0,0.0,0.0,0.0,0,False,0.0,0.0,0.0,0.0,0.0,20036,0,0,0,0,20036
0.0,0.0,0.0,0.0,0.0,0.0,1015.579833984375,22.110000610351562,11.16624927520752,2.950552463531494,0,0,0.0,0.0,0.0,0,False,0.0,0.0,0.0,0.0,0.0,20086,0,0,0,0,20086
0.0,0.0,0.0,0.0,0.0,0.0,1015.5560913085938,22.100000381469727,11.364419937133789,3.1531245708465576,0,0,0.0,0.0,0.0,0,False,0.0,0.0,0.0,0.0,0.0,20136,0,0,0,0,20136
0.0,0.0,0.0,0.0,0.0,0.0,1015.5560913085938,22.100000381469727,11.364419937133789,2.5224997997283936,0,0,0.0,0.0,0.0,0,False,0.0,0.0,0.0,0.0,0.0,20187,0,0,0,0,20187
0.0,0.0,0.0,0.0,0.0,0.0,1015.6414184570312,22.149999618530273,10.656291007995605,-0.8145158290863037,0,0,0.0,0.0,0.0,0,False,0.0,0.0,0.0,0.0,0.0,20237,0,0,0,0,20237
0.0,0.0,0.0,0.0,0.0,0.0,1015.6414184570312,22.149999618530273,10.656291007995605,-0.6516126990318298,0,0,0.0,0.0,0.0,0,False,0.0,0.0,0.0,0.0,0.0,20287,0,0,0,0,20287
0.0,0.0,0.0,0.0,0.0,0.0,1015.5667114257812,22.100000381469727,11.274582862854004,1.951877236366272,0,0,0.0,0.0,0.0,0,False,0.0,0.0,0.0,0.0,0.0,20337,0,0,0,0,20337
0.0,0.0,0.0,0.0,0.0,0.0,1015.5667114257812,22.100000381469727,11.274582862854004,1.5615018606185913,0,0,0.0,0.0,0.0,0,False,0.0,0.0,0.0,0.0,0.0,20396,0,0,0,0,20396
0.0,0.0,0.0,0.0,0.0,0.0,1015.4998168945312,22.059999465942383,11.83210277557373,3.479281187057495,0,0,0.0,0.0,0.0,0,False,0.0,0.0,0.0,0.0,0.0,20446,0,0,0,0,20446
0.0,0.0,0.0,0.0,0.0,0.0,1015.4998168945312,22.059999465942383,11.83210277557373,2.7834250926971436,0,0,0.0,0.0,0.0,0,False,0.0,0.0,0.0,0.0,0.0,20496,0,0,0,0,20496
0.0,0.0,0.0,0.0,0.0,0.0,1015.443603515625,22.020000457763672,12.29714298248291,4.08690071105957,0,0,0.0,0.0,0.0,0,False,0.0,0.0,0.0,0.0,0.0,20546,0,0,0,0,20546
0.0,0.0,0.0,0.0,0.0,0.0,1015.443603515625,22.020000457763672,12.29714298248291,3.2695205211639404,0,0,0.0,0.0,0.0,0,False,0.0,0.0,0.0,0.0,0.0,20596,0,0,0,0,20596
0.0,0.0,0.0,0.0,0.0,0.0,1015.5326538085938,22.079999923706055,11.557306289672852,-0.34373021125793457,0,0,0.0,0.0,0.0,0,False,0.0,0.0,0.0,0.0,0.0,20646,0,0,0,0,20646
0.0,0.0,0.0,0.0,0.0,0.0,1015.5326538085938,22.079999923706055,11.557306289672852,-0.2749841809272766,0,0,0.0,0.0,0.0,0,False,0.0,0.0,0.0,0.0,0.0,20696,0,0,0,0,20696
0.0,0.0,0.0,0.0,0.0,0.0,1015.471435546875,22.040000915527344,12.067264556884766,1.8198456764221191,0,0,0.0,0.0,0.0,0,False,0.0,0.0,0.0,0.0,0.0,20746,0,0,0,0,20746
0.0,0.0,0.0,0.0,0.0,0.0,1015.471435546875,22.040000915527344,12.067264556884766,1.4558765888214111,0,0,0.0,0.0,0.0,0,False,0.0,0.0,0.0,0.0,0.0,20796,0,0,0,0,20796
0.0,0.0,0.0,0.0,0.0,0.0,1015.4168701171875,22.010000228881836,12.51909351348877,2.972017288208008,0,0,0.0,0.0,0.0,0,False,0.0,0.0,0.0,0.0,0.0,20846,0,0,0,0,20846
0.0,0.0,0.0,0.0,0.0,0.0,1015.4168701171875,22.010000228881836,12.51909351348877,2.3776137828826904,0,0,0.0,0.0,0.0,0,False,0.0,0.0,0.0,0.0,0.0,20896,0,0,0,0,20896
0.0,0.0,0.0,0.0,0.0,0.0,1015.3668823242188,21.969999313354492,12.936573028564453,3.5720090866088867,0,0,0.0,0.0,0.0,0,False,0.0,0.0,0.0,0.0,0.0,20946,0,0,0,0,20946
0.0,0.0,0.0,0.0,0.0,0.0,1015.3668823242188,21.969999313354492,12.936573028564453,2.857607364654541,0,0,0.0,0.0,0.0,0,False,0.0,0.0,0.0,0.0,0.0,20996,0,0,0,0,20996
0.0,0.0,0.0,0.0,0.0,0.0,1015.4657592773438,22.040000915527344,12.114826202392578,-1.000901460647583,0,0,0.0,0.0,0.0,0,False,0.0,0.0,0.0,0.0,0.0,21046,0,0,0,0,21046
0.0,0.0,0.0,0.0,0.0,0.0,1015.4657592773438,22.040000915527344,12.114826202392578,-0.8007211685180664,0,0,0.0,0.0,0.0,0,False,0.0,0.0,0.0,0.0,0.0,21096,0,0,0,0,21096
0.0,0.0,0.0,0.0,0.0,0.0,1015.4234619140625,22.010000228881836,12.466248512268066,0.7651122808456421,0,0,0.0,0.0,0.0,0,False,0.0,0.0,0.0,0.0,0.0,21146,0,0,0,0,21146
0.0,0.0,0.0,0.0,0.0,0.0,1015.4234619140625,22.010000228881836,12.466248512268066,0.6120898127555847,0,0,0.0,0.0,0.0,0,False,0.0,0.0,0.0,0.0,0.0,21196,0,0,0,0,21196
0.0,0.0,0.0,0.0,0.0,0.0,1015.3945922851562,21.989999771118164,12.704052925109863,1.4408894777297974,0,0,0.0,0.0,0.0,0,False,0.0,0.0,0.0,0.0,0.0,21246,0,0,0,0,21246
0.0,0.0,0.0,0.0,0.0,0.0,1015.3945922851562,21.989999771118164,12.704052925109863,1.1527116298675537,0,0,0.0,0.0,0.0,0,False,0.0,0.0,0.0,0.0,0.0,21296,0,0,0,0,21296
0.0,0.0,0.0,0.0,0.0,0.0,1015.3621826171875,21.969999313354492,12.973565101623535,2.000217914581299,0,0,0.0,0.0,0.0,0,False,0.0,0.0,0.0,0.0,0.0,21346,0,0,0,0,21346
0.0,0.0,0.0,0.0,0.0,0.0,1015.3621826171875,21.969999313354492,12.973565101623535,1.6001743078231812,0,0,0.0,0.0,0.0,0,False,0.0,0.0,0.0,0.0,0.0,21396,0,0,0,0,21396
0.0,0.0,0.0,0.0,0.0,0.0,1015.4627075195312,22.030000686645508,12.138606071472168,-2.059696674346924,0,0,0.0,0.0,0.0,0,False,0.0,0.0,0.0,0.0,0.0,21446,0,0,0,0,21446
0.0,0.0,0.0,0.0,0.0,0.0,1015.4627075195312,22.030000686645508,12.138606071472168,-1.6477574110031128,0,0,0.0,0.0,0.0,0,False,0.0,0.0,0.0,0.0,0.0,21496,0,0,0,0,21496
0.0,0.0,0.0,0.0,0.0,0.0,1015.4201049804688,22.010000228881836,12.492671012878418,0.07028412818908691,0,0,0.0,0.0,0.0,0,False,0.0,0.0,0.0,0.0,0.0,21547,0,0,0,0,21547
0.0,0.0,0.0,0.0,0.0,0.0,1015.4201049804688,22.010000228881836,12.492671012878418,0.05622730404138565,0,0,0.0,0.0,0.0,0,False,0.0,0.0,0.0,0.0,0.0,21597,0,0,0,0,21597
0.0,0.0,0.0,0.0,0.0,0.0,1015.3817138671875,21.979999542236328,12.812386512756348,1.3238438367843628,0,0,0.0,0.0,0.0,0,False,0.0,0.0,0.0,0.0,0.0,21647,0,0,0,0,21647
0.0,0.0,0.0,0.0,0.0,0.0,1015.3817138671875,21.979999542236328,12.812386512756348,1.059075117111206,0,0,0.0,0.0,0.0,0,False,0.0,0.0,0.0,0.0,0.0,21697,0,0,0,0,21697
0.0,0.0,0.0,0.0,0.0,0.0,1015.342041015625,21.959999084472656,13.142670631408691,2.168396472930908,0,0,0.0,0.0,0.0,0,False,0.0,0.0,0.0,0.0,0.0,21747,0,0,0,0,21747
0.0,0.0,0.0,0.0,0.0,0.0,1015.342041015625,21.959999084472656,13.142670631408691,1.7347172498703003,0,0,0.0,0.0,0.0,0,False,0.0,0.0,0.0,0.0,0.0,21797,0,0,0,0,21797
0.0,0.0,0.0,0.0,0.0,0.0,1015.4412231445312,22.020000457763672,12.318281173706055,-1.909783959388733,0,0,0.0,0.0,0.0,0,False,0.0,0.0,0.0,0.0,0.0,21847,0,0,0,0,21847
0.0,0.0,0.0,0.0,0.0,0.0,1015.4412231445312,22.020000457763672,12.318281173706055,-1.5278271436691284,0,0,0.0,0.0,0.0,0,False,0.0,0.0,0.0,0.0,0.0,21897,0,0,0,0,21897
